[
    {
        "name": "Allied Electronics Pte Ltd",
        "lat": -18.14018,
        "lng": 178.4278,
        "address": "Level 1, 90 Raojibhai Patel St,  Suva"
    },
    {
        "name": "Impression Of Lautoka Fiji",
        "lat": -17.60335,
        "lng": 177.4554,
        "address": "5 Yasawa st lautoka"
    },
    {
        "name": "Imroz Fruits & Vegetables Supplies",
        "lat": -17.60518,
        "lng": 177.4534,
        "address": "Vakabale st last okay shop 4"
    },
    {
        "name": "Integrated Foods",
        "lat": -18.14598,
        "lng": 178.4335,
        "address": "Level 3, Yue Lai hotel, 16 bau street,  flagstaff"
    },
    {
        "name": "Istifaq Ali",
        "lat": -17.53687,
        "lng": 177.6874,
        "address": "Midtown"
    },
    {
        "name": "J P Mistry & Co",
        "lat": -17.47712,
        "lng": 177.7252,
        "address": "10km from town to tavua"
    },
    {
        "name": "Jamuna Prasad & Sons",
        "lat": -18.02666,
        "lng": 178.4739,
        "address": "Sawani"
    },
    {
        "name": "Jason Jivnesh Dass",
        "lat": -18.14445,
        "lng": 178.4401,
        "address": "24 Vuga St  Flagstaff"
    },
    {
        "name": "Josaia Toanivala & Nanise Vesikula",
        "lat": -18.13801,
        "lng": 178.4236,
        "address": "Handicraft center"
    },
    {
        "name": "Josphine Rupam Chandra & Ajay Kumar",
        "lat": -18.06457,
        "lng": 178.5114,
        "address": "9miles Nakasi.Shop 1 Pals Building"
    },
    {
        "name": "Kamis Food Mart & Autogas",
        "lat": -18.08314,
        "lng": 178.4984,
        "address": "Lot 1 Muanikoso Road"
    },
    {
        "name": "Kanjana Devi",
        "lat": -18.13785,
        "lng": 178.4267,
        "address": "Mark street suva"
    },
    {
        "name": "Khans Buses",
        "lat": -17.62942,
        "lng": 177.4317,
        "address": "Navutu infustrial"
    },
    {
        "name": "Kp Prints",
        "lat": -18.13105,
        "lng": 178.452,
        "address": "Lot 56,Grantham Court Raiwaqa"
    },
    {
        "name": "Kussum Lata",
        "lat": -17.64587,
        "lng": 177.4151,
        "address": "Ministry apartments"
    },
    {
        "name": "Anjani Lata",
        "lat": -17.53703,
        "lng": 177.6892,
        "address": "Main Street ba"
    },
    {
        "name": "Lals Watch Company",
        "lat": -18.13788,
        "lng": 178.4266,
        "address": "Mark street, shop 10"
    },
    {
        "name": "Lesumaiigiladi Handicraft",
        "lat": -18.13444,
        "lng": 178.4261,
        "address": "Flee market"
    },
    {
        "name": "Lianas Fiji",
        "lat": -18.14167,
        "lng": 178.4384,
        "address": "Rewa street, suva"
    },
    {
        "name": "Apex Associates & Tax Agent",
        "lat": -17.60592,
        "lng": 177.458,
        "address": "49 Vitogo Parade"
    },
    {
        "name": "Maharaj Medical Center",
        "lat": -18.11087,
        "lng": 178.4694,
        "address": "7Vesivesi Rd, Laucala Beach Estate, Suva"
    },
    {
        "name": "Makadru Investment Company",
        "lat": -18.12779,
        "lng": 178.4492,
        "address": "Samabula"
    },
    {
        "name": "Makans",
        "lat": -17.62164,
        "lng": 177.437,
        "address": "Lot drasa  Avenue lautoka"
    },
    {
        "name": "Manis Refrigeration & Air Conditioning",
        "lat": -17.60443,
        "lng": 177.4576,
        "address": "5 Nasoki street lautoka"
    },
    {
        "name": "Marine Drive Auto Services",
        "lat": -17.60543,
        "lng": 177.4617,
        "address": "Ravouvou Street,  Lautoka"
    },
    {
        "name": "Masala Twist",
        "lat": -18.14626,
        "lng": 178.4292,
        "address": "30 McGregor Rd"
    },
    {
        "name": "Massam Investment",
        "lat": -17.75716,
        "lng": 177.4654,
        "address": "Neelfield legalega nadi"
    },
    {
        "name": "Arc Design And Construction Pte Ltd",
        "lat": -18.096,
        "lng": 178.4837,
        "address": "Lot 7 Caqiri Rd, Nasinu"
    },
    {
        "name": "Architects Pacific Pte Ltd",
        "lat": -18.12653,
        "lng": 178.457,
        "address": "Lot 7 Lalita Bhindi Subdivision"
    },
    {
        "name": "Mitesh Kumar Pickmeal Fastfood",
        "lat": -17.60414,
        "lng": 177.4551,
        "address": "Sugar City Mall, Lautoka"
    },
    {
        "name": "Modern Stationery And Prinitngs",
        "lat": -18.12478,
        "lng": 178.443,
        "address": "82 Ratu Mara road"
    },
    {
        "name": "Sahibs Rental",
        "lat": -17.63314,
        "lng": 177.4451,
        "address": "16 pott st Kashmir"
    },
    {
        "name": "Mohammed Fariaz",
        "lat": -17.53508,
        "lng": 177.6897,
        "address": "Main street Ba town"
    },
    {
        "name": "Mohinis Takeaway",
        "lat": -18.14458,
        "lng": 178.4358,
        "address": "Lot 2 Bau Street"
    },
    {
        "name": "Happy Feet",
        "lat": -17.60593,
        "lng": 177.4558,
        "address": "71 Vitogo Parade"
    },
    {
        "name": "Nadera Transport",
        "lat": -18.09397,
        "lng": 178.4833,
        "address": "Lot 28 Dabea lane Valelevu"
    },
    {
        "name": "Nadi Motor Spares",
        "lat": -17.60675,
        "lng": 177.461,
        "address": "Main Street, nadi"
    },
    {
        "name": "Ashneil Ram",
        "lat": -17.51288,
        "lng": 177.6967,
        "address": "Lot 2 naiyarayara subdivision"
    },
    {
        "name": "Asilika Natavo",
        "lat": -17.60278,
        "lng": 177.4557,
        "address": "Tukani street Napmoli avenue shop 9"
    },
    {
        "name": "Neutech Electrical & Industrial Supplies",
        "lat": -17.60354,
        "lng": 177.4512,
        "address": "Nede street, lautoka"
    },
    {
        "name": "P Kumar Electrical Services",
        "lat": -17.60432,
        "lng": 177.4587,
        "address": "14 ravouvou st"
    },
    {
        "name": "Pacific Habour Planters",
        "lat": -18.2556,
        "lng": 178.0646,
        "address": "Bh"
    },
    {
        "name": "Autoforce Mobile Repairs & Fabrication",
        "lat": -18.11113,
        "lng": 178.409,
        "address": "Lot 1, Lesi st"
    },
    {
        "name": "Paints Solution & Hardware",
        "lat": -17.60404,
        "lng": 177.4561,
        "address": "22 Namoli Avenue"
    },
    {
        "name": "Parkers Charted Accountants",
        "lat": -18.13978,
        "lng": 178.424,
        "address": "33 vicktoria patade, suva"
    },
    {
        "name": "Pay Less Shoes",
        "lat": -18.13883,
        "lng": 178.4271,
        "address": "Waimanu rd"
    },
    {
        "name": "Permal Reddy",
        "lat": -17.50239,
        "lng": 177.5828,
        "address": "raviravi"
    },
    {
        "name": "Pools Plus",
        "lat": -18.10513,
        "lng": 178.4045,
        "address": "Nasevou st"
    },
    {
        "name": "Prakash Mechnical Hydraulic Services",
        "lat": -18.12202,
        "lng": 178.4472,
        "address": "192 lakeba st samabula"
    },
    {
        "name": "Avnil Autoworld Pte Ltd",
        "lat": -17.64096,
        "lng": 177.4216,
        "address": "Velovelo Main Road, Lautoka"
    },
    {
        "name": "Price Line",
        "lat": -18.13875,
        "lng": 178.4269,
        "address": "Renwick road,Suva"
    },
    {
        "name": "Professional Plumbing Services",
        "lat": -18.11359,
        "lng": 178.3681,
        "address": "Veosari"
    },
    {
        "name": "Propaganda Screenprinting",
        "lat": -17.62798,
        "lng": 177.4603,
        "address": "21 Leonidas Street, Dragan Vitogo,  Lautoka"
    },
    {
        "name": "Pump Tech Fiji",
        "lat": -18.12566,
        "lng": 178.4462,
        "address": "Samabula"
    },
    {
        "name": "Axial Unison Engineering Pte Ltd",
        "lat": -18.11279,
        "lng": 178.4119,
        "address": "Lot 43, 44, Wailada, Lami"
    },
    {
        "name": "Rabi Kava",
        "lat": -18.13926,
        "lng": 178.4243,
        "address": "61 Rewa st, suva"
    },
    {
        "name": "Sweet Ace",
        "lat": -17.6052,
        "lng": 177.4533,
        "address": "Shop 2, Vakabale Street"
    },
    {
        "name": "Rahul Sharma",
        "lat": -17.53703,
        "lng": 177.6894,
        "address": "Mistry Lane, Ba"
    },
    {
        "name": "Rajen Builders",
        "lat": -18.12223,
        "lng": 178.4563,
        "address": "470 ratu mara rd nabua"
    },
    {
        "name": "Rakesh & Ruby Enterprises",
        "lat": -17.60413,
        "lng": 177.4516,
        "address": "Tukani street"
    },
    {
        "name": "Ram Narayan Engineering Fiji",
        "lat": -17.53201,
        "lng": 177.6924,
        "address": "Main st"
    },
    {
        "name": "Ram Pati Investments",
        "lat": -18.05488,
        "lng": 178.5429,
        "address": "Lot 1, Lokia"
    },
    {
        "name": "Raniga Jewellers",
        "lat": -17.80382,
        "lng": 177.4151,
        "address": "Main st"
    },
    {
        "name": "Ranjeets Construction And Joinery Works",
        "lat": -17.62683,
        "lng": 177.4616,
        "address": "16,Leonidas Street,Tomuka,Lautoka"
    },
    {
        "name": "Azels Technology Fiji Traders Pte Ltd",
        "lat": -18.12618,
        "lng": 178.4415,
        "address": "Ratu Mara rd"
    },
    {
        "name": "Raviasni",
        "lat": -17.51207,
        "lng": 177.6977,
        "address": "Wailailai"
    },
    {
        "name": "Raviravi Investment Timber And Hardware",
        "lat": -18.13667,
        "lng": 178.4622,
        "address": "Lot 1 Viria East Road, Vatuwaqa"
    },
    {
        "name": "Abdul Garment",
        "lat": -17.5354,
        "lng": 177.6897,
        "address": "FDB building"
    },
    {
        "name": "Real Forex Proprietary Fiji",
        "lat": -17.77618,
        "lng": 177.4332,
        "address": "Shop 4 hiralal commercial building martintar"
    },
    {
        "name": "Reginal Motor Repairs",
        "lat": -17.53451,
        "lng": 177.6885,
        "address": "Main St, Ba"
    },
    {
        "name": "B W Holding Pte Limited",
        "lat": -18.13799,
        "lng": 178.4634,
        "address": "Lot 1 Viria Road  Vatuwaqa"
    },
    {
        "name": "Global Electrical Pte Ltd",
        "lat": -17.53779,
        "lng": 177.6939,
        "address": "Bala street varandoli ba"
    },
    {
        "name": "Ronald Ravinesh Kumar Investment",
        "lat": -18.0556,
        "lng": 177.3553,
        "address": "Main highway Kabisi opp Vatuvara Police Post"
    },
    {
        "name": "Roshenshopping Center",
        "lat": -18.02003,
        "lng": 178.5261,
        "address": "Lot 23 Mara Rd Manoca"
    },
    {
        "name": "Rotech Supplies & Tent",
        "lat": -18.12888,
        "lng": 178.4574,
        "address": "Lot 1, januman rd"
    },
    {
        "name": "Safetech Electrical",
        "lat": -18.13106,
        "lng": 178.4292,
        "address": "Foster rd walu bay"
    },
    {
        "name": "Abdul Naseem",
        "lat": -18.12161,
        "lng": 178.4649,
        "address": "88 Jerusalem Rd Nabua"
    },
    {
        "name": "Sai Car Rentals",
        "lat": -18.12756,
        "lng": 178.457,
        "address": "Lot 7 Ratu Dovi Road,Nasinu"
    },
    {
        "name": "Samima Bibi",
        "lat": -18.2202,
        "lng": 178.1626,
        "address": "Main St Navua"
    },
    {
        "name": "Sarita Kumar",
        "lat": -17.53784,
        "lng": 177.6853,
        "address": "Rahim tula Khan Building"
    },
    {
        "name": "Satellite Barber Shop",
        "lat": -18.1115,
        "lng": 178.468,
        "address": "RB Patel Bldg, Centerpoint,  Nasinu"
    },
    {
        "name": "Sawani Heights Development",
        "lat": -18.02877,
        "lng": 178.4697,
        "address": "Sawani shop opposite ACS School"
    },
    {
        "name": "Semesa Doidoi",
        "lat": -17.60268,
        "lng": 177.4553,
        "address": "Opposite minibus stand"
    },
    {
        "name": "Sen Brothers Transport",
        "lat": -17.61013,
        "lng": 177.4661,
        "address": "Vunato industrial, lautoka"
    },
    {
        "name": "Shabana Sarin Shafi",
        "lat": -17.60238,
        "lng": 177.4515,
        "address": "nede st beside south sea club"
    },
    {
        "name": "Shahnaz Ali",
        "lat": -17.5528,
        "lng": 177.6743,
        "address": "Tarivo rd, Vatulaulau"
    },
    {
        "name": "Shakil And Shazeema Enterprises",
        "lat": -17.80516,
        "lng": 177.4141,
        "address": "Shop 49 Vunavau Street"
    },
    {
        "name": "Sherlin Lata",
        "lat": -18.05746,
        "lng": 178.5095,
        "address": "Adidavila rd"
    },
    {
        "name": "Singhs Accounting And Taxation Services",
        "lat": -18.02852,
        "lng": 178.5287,
        "address": "Main st"
    },
    {
        "name": "Singhs Rental",
        "lat": -17.60592,
        "lng": 177.4558,
        "address": "40 Vitogo Parade, Lautoka"
    },
    {
        "name": "Sister Reefer Services",
        "lat": -18.13856,
        "lng": 178.4593,
        "address": "Oakland street"
    },
    {
        "name": "Solid Designs",
        "lat": -18.22443,
        "lng": 178.1663,
        "address": "Shop2 Mohammed Complex, Navua"
    },
    {
        "name": "South Pacific Audio",
        "lat": -18.14392,
        "lng": 178.4362,
        "address": "Lot 9 Rewa Street, Suva"
    },
    {
        "name": "Steps Investment Fiji",
        "lat": -17.77957,
        "lng": 177.4319,
        "address": "Jetpoint Martintar - Whitehouse Nightclub"
    },
    {
        "name": "Stev Ro",
        "lat": -18.13337,
        "lng": 178.4384,
        "address": "Moti st"
    },
    {
        "name": "Stream Rentals & Tours Fiji",
        "lat": -18.10114,
        "lng": 178.473,
        "address": "Kinoya"
    },
    {
        "name": "Streamline Business Fiji",
        "lat": -18.13802,
        "lng": 178.4246,
        "address": "4 Scott street suva"
    },
    {
        "name": "Sun Smiles Cafe",
        "lat": -18.13931,
        "lng": 178.4256,
        "address": "Shop 7 FNPF Boulevard"
    },
    {
        "name": "Sunils Savusavu Kava",
        "lat": -17.60804,
        "lng": 177.4571,
        "address": "Drasa Avenue"
    },
    {
        "name": "Suntai Co",
        "lat": -18.11448,
        "lng": 178.4136,
        "address": "Suvavou"
    },
    {
        "name": "Suzanne Wonje",
        "lat": -17.60392,
        "lng": 177.4534,
        "address": "Bila st"
    },
    {
        "name": "Ta Hilite Fiji",
        "lat": -18.21152,
        "lng": 178.1744,
        "address": "Tokotoko Highway, Navua"
    },
    {
        "name": "The Club At Carrick",
        "lat": -18.1388,
        "lng": 178.4263,
        "address": "1 Kimberly suva"
    },
    {
        "name": "The Fryers Delights Fish And Chips",
        "lat": -18.11415,
        "lng": 178.4497,
        "address": "181 Mead Rd"
    },
    {
        "name": "Anand & Prasad Investment Pte Ltd",
        "lat": -17.65272,
        "lng": 177.4074,
        "address": "Queens road, Saweni"
    },
    {
        "name": "Trade Furniture And Joinery & Island Pacific Apparel",
        "lat": -17.80245,
        "lng": 177.4308,
        "address": "Nadi back road close to kerebula"
    },
    {
        "name": "Tradeway Electronics",
        "lat": -18.1374,
        "lng": 178.4256,
        "address": "Shop 10 sport city complex"
    },
    {
        "name": "Ultimate Holdings",
        "lat": -18.07525,
        "lng": 178.5004,
        "address": "Makoi"
    },
    {
        "name": "Valves Fitting",
        "lat": -17.62297,
        "lng": 177.4547,
        "address": "Lautoka  city"
    },
    {
        "name": "Victory Property Consultants",
        "lat": -17.63309,
        "lng": 177.4454,
        "address": "Port street lautoka"
    },
    {
        "name": "Vijay Naidu & Associates",
        "lat": -17.607,
        "lng": 177.456,
        "address": "1 valetia st"
    },
    {
        "name": "Vinod Prakash",
        "lat": -17.53844,
        "lng": 177.6973,
        "address": "Ganga Singh street"
    },
    {
        "name": "Vinu Trading Company",
        "lat": -18.12563,
        "lng": 178.4465,
        "address": "Ratu Mara Rd, Lot 36, Samabula"
    },
    {
        "name": "Bhupendra Kumar",
        "lat": -17.60554,
        "lng": 177.4554,
        "address": "Shop 5,Yasawa st"
    },
    {
        "name": "Vulagi Seafood Supplies",
        "lat": -17.63451,
        "lng": 177.4286,
        "address": "Natodola  shopping complex"
    },
    {
        "name": "Walt Smith International Fiji",
        "lat": -17.61837,
        "lng": 177.4352,
        "address": "Navutu industrial subdivision lautoka"
    },
    {
        "name": "Jerusalem Marine Safety Boat Builders",
        "lat": -18.12031,
        "lng": 178.4653,
        "address": "Jerusalem Rd"
    },
    {
        "name": "Zaheera Kasim",
        "lat": -17.60494,
        "lng": 177.4543,
        "address": "Ravouravou st"
    },
    {
        "name": "Zeeclean Chemicles",
        "lat": -17.60616,
        "lng": 177.4616,
        "address": "43 Ravouvou Street,  Lautoka"
    },
    {
        "name": "A Sia Dina Arai",
        "lat": -18.13549,
        "lng": 178.4247,
        "address": "Suva market"
    },
    {
        "name": "Aashnis Mini Mart",
        "lat": -17.65554,
        "lng": 177.4058,
        "address": "Saweni Reubens tire centre"
    },
    {
        "name": "Blue Bird Electrical Services",
        "lat": -17.53242,
        "lng": 177.6739,
        "address": "Nadrau Street,Yalalevu"
    },
    {
        "name": "Action Print Services",
        "lat": -18.14033,
        "lng": 178.4239,
        "address": "Shop 6 vanua arcade suva city"
    },
    {
        "name": "Nunia Dilili'S Handicraft",
        "lat": -18.13493,
        "lng": 178.426,
        "address": "Suva Flea Market"
    },
    {
        "name": "Ajeshni Gosai Canteen &Dairy Shop",
        "lat": -18.08936,
        "lng": 178.4972,
        "address": "Laqere Market 8 miles"
    },
    {
        "name": "Blue Horizon Property Group Pte Ltd",
        "lat": -18.11291,
        "lng": 178.4089,
        "address": "Wailada"
    },
    {
        "name": "Aminas Minimart",
        "lat": -17.47249,
        "lng": 177.7334,
        "address": "Bilolo ba"
    },
    {
        "name": "Mita'S Tailoring",
        "lat": -18.13453,
        "lng": 178.4265,
        "address": "Stall 807, Flea Market"
    },
    {
        "name": "Amritas Supermarket & Liqourland",
        "lat": -18.11214,
        "lng": 178.4687,
        "address": "Shop 31G Lees Compex Laucala Beach"
    },
    {
        "name": "Kavalicious Bula Bar",
        "lat": -17.77485,
        "lng": 177.4339,
        "address": "Lot 4 Mt st Mary rd,namaka"
    },
    {
        "name": "Anshu Lata",
        "lat": -18.07493,
        "lng": 178.518,
        "address": "Lot 14, Vishnu Deo rd, Nakasi"
    },
    {
        "name": "Anis Tailoring",
        "lat": -18.13933,
        "lng": 178.4229,
        "address": "De Vos on the Park, YWCA Building ,Regal Lane,Suva"
    },
    {
        "name": "Artika Vilashni",
        "lat": -18.13656,
        "lng": 178.4606,
        "address": "Auckland street vatuwaqa"
    },
    {
        "name": "Aussie Family Clothing",
        "lat": -18.12071,
        "lng": 178.4587,
        "address": "CJS Supermarket Building,  Nabua"
    },
    {
        "name": "Beauty Haven",
        "lat": -18.12087,
        "lng": 178.4592,
        "address": "Shop 1, level I Nands  Mall, 550 Ratu Mara road"
    },
    {
        "name": "Bedh Wati",
        "lat": -18.11559,
        "lng": 178.3537,
        "address": "Veisari"
    },
    {
        "name": "Spice Nature",
        "lat": -18.02673,
        "lng": 178.5289,
        "address": "Nausori market"
    },
    {
        "name": "Bombay Trading Investment Pte Ltd",
        "lat": -17.53641,
        "lng": 177.6879,
        "address": "Main street"
    },
    {
        "name": "Chaudhary & Associates Barristes And Solicitors",
        "lat": -17.60477,
        "lng": 177.452,
        "address": "1st Floor, Popular Building, Vidilo Street"
    },
    {
        "name": "Cohesion Investment",
        "lat": -18.13442,
        "lng": 178.4261,
        "address": "Flea market"
    },
    {
        "name": "Dabra Bibi Dairy Shop",
        "lat": -17.97939,
        "lng": 178.5243,
        "address": "Drakanikelo, Kasavu"
    },
    {
        "name": "Daily Chemist",
        "lat": -18.10203,
        "lng": 178.4729,
        "address": "Lot 24, Kings Rd, Kinoya"
    },
    {
        "name": "Delanimati Enterprises",
        "lat": -18.13544,
        "lng": 178.4257,
        "address": "Don't know"
    },
    {
        "name": "Dineshwari Ben",
        "lat": -18.2262,
        "lng": 178.1648,
        "address": "Navua town"
    },
    {
        "name": "Elisabeta Quality & General Supplies",
        "lat": -18.13997,
        "lng": 178.3006,
        "address": "Opposite Naboro Prison Compound"
    },
    {
        "name": "Evelyn Devis Canteen",
        "lat": -18.05369,
        "lng": 178.5419,
        "address": "Koronivia Rd, Koronivia"
    },
    {
        "name": "Galoa Shopping Centre",
        "lat": -18.25864,
        "lng": 178.0019,
        "address": "Galoa village"
    },
    {
        "name": "Garden Kava Dealers",
        "lat": -18.02662,
        "lng": 178.5292,
        "address": "Nausori market"
    },
    {
        "name": "Geetaa Catering",
        "lat": -18.10093,
        "lng": 178.4921,
        "address": "Lot 1 Rt  Dovi  Rd"
    },
    {
        "name": "Grace S Chand",
        "lat": -18.11237,
        "lng": 178.4466,
        "address": "Namadi heights"
    },
    {
        "name": "Himanya Hair And Beauty",
        "lat": -18.09374,
        "lng": 178.4866,
        "address": "Kewal Rd, Nasinu"
    },
    {
        "name": "Jasnitas Mini Mart",
        "lat": -18.081,
        "lng": 178.5058,
        "address": "New world complex narere"
    },
    {
        "name": "Jijis Mini Mart",
        "lat": -18.05599,
        "lng": 178.5151,
        "address": "Sasawira, Nakasi"
    },
    {
        "name": "Jotishma Singh",
        "lat": -18.10581,
        "lng": 178.4856,
        "address": "Visako Circle Nadera"
    },
    {
        "name": "N C Patel & Sons",
        "lat": -17.60469,
        "lng": 177.4551,
        "address": "86 Naviti Street, Lautoka town"
    },
    {
        "name": "Jyoti Sarava Store",
        "lat": -17.49812,
        "lng": 177.6455,
        "address": "Sarava, Kings Highway"
    },
    {
        "name": "Jyotishna Easy Buy",
        "lat": -18.02863,
        "lng": 178.5289,
        "address": "ANZ building nausori"
    },
    {
        "name": "Khalsa Hire Plant",
        "lat": -18.02282,
        "lng": 178.5047,
        "address": "sawani road, Suva"
    },
    {
        "name": "Kinisinere Nasi",
        "lat": -18.13485,
        "lng": 178.4259,
        "address": "stall 36,Volau Arts,Yatu Lau arcade,Suva"
    },
    {
        "name": "Komals Canteen",
        "lat": -18.09477,
        "lng": 178.4561,
        "address": "Rokosawa road Cunningham"
    },
    {
        "name": "Kushma Wati",
        "lat": -18.07316,
        "lng": 178.5203,
        "address": "Na"
    },
    {
        "name": "Kwality Store",
        "lat": -17.80398,
        "lng": 177.4151,
        "address": "Main street nadi town"
    },
    {
        "name": "Malinis Tailoring",
        "lat": -18.13546,
        "lng": 178.4256,
        "address": "Yatu lau arcade"
    },
    {
        "name": "Manis Fastfood Restaurant",
        "lat": -17.77934,
        "lng": 177.4538,
        "address": "Nadi back road"
    },
    {
        "name": "Bull Shooters Billiard And Kava Centre Pte Ltd",
        "lat": -18.02888,
        "lng": 178.5289,
        "address": "Brown Lane, Nausori (behind Westpac Bank)"
    },
    {
        "name": "Vatusausau Handicraft",
        "lat": -18.13468,
        "lng": 178.4258,
        "address": "Flea market"
    },
    {
        "name": "Mohini Lata",
        "lat": -18.13454,
        "lng": 178.4265,
        "address": "Flea market"
    },
    {
        "name": "Monika Deo Ta Anytime Cake",
        "lat": -18.08726,
        "lng": 178.4642,
        "address": "Khalsa Rd, Tacirua East, Suva"
    },
    {
        "name": "Muni Akashni Nair",
        "lat": -17.53833,
        "lng": 177.689,
        "address": "Tabula place"
    },
    {
        "name": "My Design Tailoring",
        "lat": -18.13913,
        "lng": 178.4227,
        "address": "YMCA Building, Suva"
    },
    {
        "name": "Nadans Fast Food Investment",
        "lat": -18.14305,
        "lng": 178.4236,
        "address": "Lami town"
    },
    {
        "name": "Naitasiri Food Corner",
        "lat": -18.1356,
        "lng": 178.4264,
        "address": "Shop 5, Yatu lau arcade"
    },
    {
        "name": "Avish Canteen",
        "lat": -17.60134,
        "lng": 177.4846,
        "address": "Lovu"
    },
    {
        "name": "Business Equipment Pte Ltd",
        "lat": -18.13752,
        "lng": 178.4269,
        "address": "Mark St, Suva"
    },
    {
        "name": "Nandana Singh",
        "lat": -18.1385,
        "lng": 178.4239,
        "address": "Shop 302, New flea market,  Suva"
    },
    {
        "name": "Prime Pharmacy",
        "lat": -18.10217,
        "lng": 178.4881,
        "address": "Nadera Prime Plaza"
    },
    {
        "name": "Nazbun Bi",
        "lat": -17.60381,
        "lng": 177.456,
        "address": "18 Namoli Avenue"
    },
    {
        "name": "New South Music",
        "lat": -18.12603,
        "lng": 178.4462,
        "address": "Presidents Plaza, shop 9,rt Mara Rd, samabula"
    },
    {
        "name": "Nina Kumari",
        "lat": -17.53745,
        "lng": 177.6892,
        "address": "Main st"
    },
    {
        "name": "Nitas Takeaway",
        "lat": -18.14162,
        "lng": 178.4234,
        "address": "Shop 2 Victoria Parade, Suva City"
    },
    {
        "name": "Lia'S Beauty & Hair Saloon",
        "lat": -18.13551,
        "lng": 178.4261,
        "address": "Shop 17, yatulau arcade"
    },
    {
        "name": "Paris Ice Cream",
        "lat": -18.02761,
        "lng": 178.5286,
        "address": "Bus stand"
    },
    {
        "name": "Paulini Naisua",
        "lat": -18.13507,
        "lng": 178.4245,
        "address": "Flea Market"
    },
    {
        "name": "Phone Solace",
        "lat": -18.13622,
        "lng": 178.4254,
        "address": "Suva Market"
    },
    {
        "name": "Poonam Kavita",
        "lat": -17.53744,
        "lng": 177.6891,
        "address": "Tabua place"
    },
    {
        "name": "Praneeta Mani",
        "lat": -18.22564,
        "lng": 178.1648,
        "address": "Navua town"
    },
    {
        "name": "Pratna Reuben",
        "lat": -17.5358,
        "lng": 177.6888,
        "address": "Main st,ba"
    },
    {
        "name": "Pritikas Retail Store",
        "lat": -18.10463,
        "lng": 178.4714,
        "address": "Lot 1 velau Dr, kinoya"
    },
    {
        "name": "Priyas Boutique",
        "lat": -18.1381,
        "lng": 178.4267,
        "address": "First Floor, 69 Cumming Street, Suva"
    },
    {
        "name": "Professional Barber Shop",
        "lat": -18.09676,
        "lng": 178.4812,
        "address": "Valelevu"
    },
    {
        "name": "Pushpa Wati",
        "lat": -17.53561,
        "lng": 177.6891,
        "address": "Main Street Ba"
    },
    {
        "name": "Rahika Investment",
        "lat": -18.12746,
        "lng": 178.458,
        "address": "Kasanji Street,Vatuwaqa"
    },
    {
        "name": "Ranadi Tagilala",
        "lat": -18.15074,
        "lng": 178.4511,
        "address": "Suva handicraft stall 37"
    },
    {
        "name": "Ranjana Wati Investment",
        "lat": -18.02174,
        "lng": 178.5089,
        "address": "Close to Ram Biessar School, Sawani"
    },
    {
        "name": "Ranjani Sangeeta",
        "lat": -18.15597,
        "lng": 178.4264,
        "address": "46 Ratu sukuna road"
    },
    {
        "name": "Reena Jeet",
        "lat": -17.60512,
        "lng": 177.4535,
        "address": "Vakabale st"
    },
    {
        "name": "Reena Kumari",
        "lat": -17.62867,
        "lng": 177.4732,
        "address": "Tomuka"
    },
    {
        "name": "Roselyn Lata Prasad",
        "lat": -18.09359,
        "lng": 178.4885,
        "address": "Nasole"
    },
    {
        "name": "Roshni Takeaway",
        "lat": -18.23751,
        "lng": 178.1102,
        "address": "Nakaulevu,Navua"
    },
    {
        "name": "Rup Wati",
        "lat": -17.62164,
        "lng": 177.7061,
        "address": "Nukuloa Settlement,  Ba"
    },
    {
        "name": "Taurus Pacific Enterprises",
        "lat": -17.60266,
        "lng": 177.4553,
        "address": "8 Tukani street"
    },
    {
        "name": "Sainaz Nisha Retail Shop",
        "lat": -18.10155,
        "lng": 178.4985,
        "address": "Drivi Rd, Nadawa"
    },
    {
        "name": "Sai Hair Salon",
        "lat": -18.02805,
        "lng": 178.5274,
        "address": "Lateef  street  Nausori"
    },
    {
        "name": "Firefly Restaurant",
        "lat": -17.53619,
        "lng": 177.688,
        "address": "main st ba town"
    },
    {
        "name": "Sanita Sese",
        "lat": -18.13813,
        "lng": 178.4254,
        "address": "Handicraft"
    },
    {
        "name": "Saraswati",
        "lat": -17.60453,
        "lng": 177.4536,
        "address": "Vakabale st"
    },
    {
        "name": "Sashis Uluniwai General Store",
        "lat": -18.22662,
        "lng": 178.1641,
        "address": "Navua town"
    },
    {
        "name": "Savitri Devi",
        "lat": -17.59493,
        "lng": 177.6888,
        "address": "Motu Rd, Ba"
    },
    {
        "name": "Senidrala Stall",
        "lat": -18.13433,
        "lng": 178.4235,
        "address": "Flee market"
    },
    {
        "name": "Vawa Takeaway",
        "lat": -17.60864,
        "lng": 177.4397,
        "address": "Stall based near Fiji Ports at Lautoka wharf"
    },
    {
        "name": "Sharmas Kitchen",
        "lat": -18.12064,
        "lng": 178.4587,
        "address": "Nabua, Suva"
    },
    {
        "name": "Shaveena Devi",
        "lat": -18.07613,
        "lng": 178.5011,
        "address": "Laqere Market"
    },
    {
        "name": "Sheik Sherin Bi",
        "lat": -17.64451,
        "lng": 177.4481,
        "address": "Naviti st"
    },
    {
        "name": "Shelly Narayan",
        "lat": -17.53728,
        "lng": 177.6859,
        "address": "Main street"
    },
    {
        "name": "Sisters Coffee Corner",
        "lat": -17.53562,
        "lng": 177.6887,
        "address": "Main street Next to Bhikha Bhai"
    },
    {
        "name": "Siteri Tikoilakeba Koto",
        "lat": -18.13476,
        "lng": 178.4261,
        "address": "Stall14, South Mall, Flee Market"
    },
    {
        "name": "Station Bookshop & Milk Bar",
        "lat": -18.02763,
        "lng": 178.5282,
        "address": "Nausori Bus stand"
    },
    {
        "name": "Advance Auto Parts Pte Limited",
        "lat": -17.60685,
        "lng": 177.4608,
        "address": "19 vitogo parade lautoka"
    },
    {
        "name": "Swaran Swastika Prasad Ta Shreyas Canteen",
        "lat": -18.08861,
        "lng": 178.469,
        "address": "Khalsa road"
    },
    {
        "name": "Sweet And Spicy Restaurant",
        "lat": -18.13906,
        "lng": 178.4281,
        "address": "Shop 1,Raojibahai Patel Street"
    },
    {
        "name": "Taina Danford",
        "lat": -18.13461,
        "lng": 178.4265,
        "address": "Flea Market"
    },
    {
        "name": "The Edge Bistro",
        "lat": -17.80311,
        "lng": 177.4169,
        "address": "Shop 5, Level 2,  Market Road, Nadi Town"
    },
    {
        "name": "The Tailoring Edge",
        "lat": -18.13423,
        "lng": 178.4263,
        "address": "Shop 1005 Flea Market"
    },
    {
        "name": "The Variety Shop",
        "lat": -18.12077,
        "lng": 178.4592,
        "address": "Cj supermarket nabua"
    },
    {
        "name": "Tinas Second Hand Shop",
        "lat": -18.24934,
        "lng": 178.076,
        "address": "Art's village"
    },
    {
        "name": "Tokasa Adibaleirara Kumunilovoni Kubunameca",
        "lat": -18.13487,
        "lng": 178.426,
        "address": "Shop 48 Flea Market"
    },
    {
        "name": "Top Video Vision",
        "lat": -18.10268,
        "lng": 178.4969,
        "address": "Lot 30 Tiri Rd, Nadawa"
    },
    {
        "name": "Urban Nest Motel",
        "lat": -18.13494,
        "lng": 178.4312,
        "address": "Waimanu  road, Suva"
    },
    {
        "name": "Urvashi Beauty Palour",
        "lat": -18.13828,
        "lng": 178.4266,
        "address": "69 Cumming st, next to In Fashion"
    },
    {
        "name": "Advance Products Marketing Fiji Pte Ltd",
        "lat": -18.0247,
        "lng": 178.525,
        "address": "Lot 5 mistry nausori"
    },
    {
        "name": "Vision Beauty Spa",
        "lat": -18.13947,
        "lng": 178.423,
        "address": "JJ Aprtment, Sakuna Park"
    },
    {
        "name": "Watis Fashionable Tailoring",
        "lat": -18.13826,
        "lng": 178.4277,
        "address": "Shop 4,suva hotel bldg,Mark st"
    },
    {
        "name": "Your Choice Pharmacy",
        "lat": -18.13281,
        "lng": 178.4337,
        "address": "354 waimanu rd"
    },
    {
        "name": "Z Khan Car Wash",
        "lat": -17.61526,
        "lng": 177.4658,
        "address": "Waiyavi"
    },
    {
        "name": "Saheb Cusine",
        "lat": -17.65292,
        "lng": 177.4074,
        "address": "Total service station saweni lautoka"
    },
    {
        "name": "3Sa Carpet Ltd",
        "lat": -18.13725,
        "lng": 178.4585,
        "address": "Lot 7, baba rd vatuwaqa"
    },
    {
        "name": "Aaqib Rentals",
        "lat": -18.03769,
        "lng": 178.5437,
        "address": "Vunimono"
    },
    {
        "name": "Aashees Motor Repairs",
        "lat": -18.12212,
        "lng": 178.4473,
        "address": "192 Lakeba Street Samabula"
    },
    {
        "name": "Shahils Refreshment Corner",
        "lat": -17.53715,
        "lng": 177.6859,
        "address": "Main st"
    },
    {
        "name": "Abheeshekh Lal Ta Tacirua Star Taxi",
        "lat": -18.07515,
        "lng": 178.4598,
        "address": "Tacirua 6miles"
    },
    {
        "name": "Ajay Textiles",
        "lat": -17.81033,
        "lng": 177.4075,
        "address": "Queens rd, nadi"
    },
    {
        "name": "Ajend Budget Shopping Centre",
        "lat": -18.12987,
        "lng": 177.4211,
        "address": "Cuvu"
    },
    {
        "name": "Classic Cuts",
        "lat": -18.11102,
        "lng": 178.4666,
        "address": "Shop 6, Vinod Patel Centerpoint in arcade"
    },
    {
        "name": "Aleeza Real Estate",
        "lat": -18.13918,
        "lng": 178.4247,
        "address": "130, Amy Street, Toorak, near Suva private hospital"
    },
    {
        "name": "Aliki Posiyala",
        "lat": -18.13451,
        "lng": 178.4264,
        "address": "Stall 1307,Flea Market,Suva"
    },
    {
        "name": "Almahs Store",
        "lat": -18.07493,
        "lng": 178.5025,
        "address": "Lot 17 vatoa rd, narere"
    },
    {
        "name": "Amal Deo",
        "lat": -18.13533,
        "lng": 178.4255,
        "address": "Main Street,  Suva"
    },
    {
        "name": "Aman Dayal",
        "lat": -17.53868,
        "lng": 177.685,
        "address": "Market subdivision"
    },
    {
        "name": "Haverst Babar Shop",
        "lat": -18.11054,
        "lng": 178.4677,
        "address": "RB CENTER POINT"
    },
    {
        "name": "Amit Kumar Raj",
        "lat": -18.12223,
        "lng": 178.4587,
        "address": "Nabua"
    },
    {
        "name": "Popular General Upholstery",
        "lat": -18.12407,
        "lng": 178.4442,
        "address": "47 Moala st,Samabula"
    },
    {
        "name": "Digital Photo Studio",
        "lat": -17.53642,
        "lng": 177.6878,
        "address": "Main street"
    },
    {
        "name": "Anand Nilesh Kumar",
        "lat": -17.60467,
        "lng": 177.4563,
        "address": "9 namoli ave"
    },
    {
        "name": "Advanced Eye And Ear Care",
        "lat": -17.53731,
        "lng": 177.6896,
        "address": "J Singh building main street ba"
    },
    {
        "name": "Nausori Airport Hotel",
        "lat": -18.03734,
        "lng": 178.5595,
        "address": "Lot 4 Kuku Bau Road  Nausori"
    },
    {
        "name": "Anish Nand",
        "lat": -18.11271,
        "lng": 178.4099,
        "address": "Lot 6,Lami Street, Lami"
    },
    {
        "name": "Anjum Haroon Electrical",
        "lat": -17.80557,
        "lng": 177.4154,
        "address": "Khan Jan Road, Nadi Town"
    },
    {
        "name": "Aral Arunesh Prasad",
        "lat": -17.53791,
        "lng": 177.686,
        "address": "Main St ba"
    },
    {
        "name": "Arveen Sami Investment",
        "lat": -18.06252,
        "lng": 178.5175,
        "address": "Lot 5 nakasi rd"
    },
    {
        "name": "Adhi Manus General Leatherwork",
        "lat": -17.53535,
        "lng": 177.6888,
        "address": "Veitau street"
    },
    {
        "name": "Asesh Minimart",
        "lat": -17.8366,
        "lng": 177.3755,
        "address": "Mate Rd nadi"
    },
    {
        "name": "Ashish Smash Repairs",
        "lat": -17.80834,
        "lng": 177.413,
        "address": "Waimanu Subdivision, Nadi"
    },
    {
        "name": "Ashiyana Restaurant",
        "lat": -18.14168,
        "lng": 178.4234,
        "address": "Victoria parade suva"
    },
    {
        "name": "Ashleys Restaurant",
        "lat": -17.80314,
        "lng": 177.417,
        "address": "Market rd"
    },
    {
        "name": "Ashvin Dayal",
        "lat": -18.13514,
        "lng": 178.4255,
        "address": "Opposite Suva Bus stand"
    },
    {
        "name": "Asmit Chand Ta Asmit Enterprise",
        "lat": -18.14615,
        "lng": 178.2553,
        "address": "Waikubu, Ba"
    },
    {
        "name": "Tomuka Dairy Shop",
        "lat": -17.62777,
        "lng": 177.4709,
        "address": "Tomuka"
    },
    {
        "name": "Avineet Singh",
        "lat": -17.5358,
        "lng": 177.6893,
        "address": "ANZ bank street"
    },
    {
        "name": "Aza Design Studio",
        "lat": -18.14152,
        "lng": 178.4494,
        "address": "Nawaka, Nadi"
    },
    {
        "name": "Beulah Stores",
        "lat": -17.83694,
        "lng": 177.3744,
        "address": "Mate Rd korovuto nadi"
    },
    {
        "name": "Classic Signs",
        "lat": -18.11053,
        "lng": 178.4425,
        "address": "53 Mead road"
    },
    {
        "name": "Blue Marlin Restaurant",
        "lat": -17.77147,
        "lng": 177.4379,
        "address": "Waqadra Nadi"
    },
    {
        "name": "Bouganville Minimart",
        "lat": -18.11588,
        "lng": 178.4572,
        "address": "Sukanaivalu rd Nabua"
    },
    {
        "name": "Clean Source",
        "lat": -18.14822,
        "lng": 178.4514,
        "address": "Laucala bay pacific energy service station"
    },
    {
        "name": "Bula Fashion Designer",
        "lat": -18.13771,
        "lng": 178.4285,
        "address": "Waimanu rd"
    },
    {
        "name": "Bula Ware And Tailoring Shop",
        "lat": -17.8041,
        "lng": 177.415,
        "address": "Main st"
    },
    {
        "name": "Chandar Pal",
        "lat": -17.59465,
        "lng": 177.4888,
        "address": "Luvu seaside, Lautoka"
    },
    {
        "name": "Chandra Segan Naicker",
        "lat": -18.09724,
        "lng": 178.4804,
        "address": "NTC Building,  Valelevu"
    },
    {
        "name": "Chands Studio",
        "lat": -18.02828,
        "lng": 178.5297,
        "address": "Ross Street Nausori opp vinod patel"
    },
    {
        "name": "Chands Towing Services",
        "lat": -17.77349,
        "lng": 177.4249,
        "address": "Wailoaloa nadi"
    },
    {
        "name": "Chettys Panel & Mechanical Services",
        "lat": -17.60646,
        "lng": 177.4617,
        "address": "59 Ravovo St Lautoka"
    },
    {
        "name": "Christopher Miller",
        "lat": -17.6044,
        "lng": 177.4509,
        "address": "Corner of Nede st and Naviti st"
    },
    {
        "name": "Classic Minimart",
        "lat": -18.10645,
        "lng": 178.4737,
        "address": "Lot 2  Velau  Drive Kinoya"
    },
    {
        "name": "Country Kava",
        "lat": -18.23144,
        "lng": 178.1182,
        "address": "Nakaulevu"
    },
    {
        "name": "Dae Myung Fishing Gear",
        "lat": -18.13018,
        "lng": 178.4283,
        "address": "39 foster rd walu bay"
    },
    {
        "name": "Daniel Vikash Grog Stall & Investment",
        "lat": -18.02668,
        "lng": 178.5289,
        "address": "Nausori market"
    },
    {
        "name": "Darmendar Kumar",
        "lat": -17.6557,
        "lng": 177.4059,
        "address": "17 Lawaki,Lautoka"
    },
    {
        "name": "Darnick",
        "lat": -18.13799,
        "lng": 178.4253,
        "address": "Pacific Harbour Centre, opposite MHCC"
    },
    {
        "name": "Dave Brothers Footwear",
        "lat": -18.13665,
        "lng": 178.426,
        "address": "Nina street"
    },
    {
        "name": "Dawasamu Transport",
        "lat": -18.00161,
        "lng": 178.5234,
        "address": "Lot 4 Kings Rd Verata"
    },
    {
        "name": "Deans Smash Repairs",
        "lat": -17.63953,
        "lng": 177.424,
        "address": "Velovelo lautoka"
    },
    {
        "name": "Deepaks Dairy Shop",
        "lat": -18.08148,
        "lng": 178.5566,
        "address": "Lokia"
    },
    {
        "name": "Deos Lube Bay And Tire Centre",
        "lat": -17.60592,
        "lng": 177.4583,
        "address": "62 vitogo Parade"
    },
    {
        "name": "Dhirendra Kumar",
        "lat": -18.12371,
        "lng": 178.4456,
        "address": "71 moala st, samabula"
    },
    {
        "name": "Dinesh Chand",
        "lat": -17.53683,
        "lng": 177.6874,
        "address": "Ganga singh street Ba town"
    },
    {
        "name": "Dipaks Hair Salon",
        "lat": -17.60551,
        "lng": 177.4555,
        "address": "yasawa st"
    },
    {
        "name": "Ronald Avinesh Lal",
        "lat": -18.06327,
        "lng": 178.5185,
        "address": "Lot . 9 Nakasi rd"
    },
    {
        "name": "Afatariki Waqabaca&Emosi Verebasaga",
        "lat": -17.53289,
        "lng": 177.6723,
        "address": "Yalalevu"
    },
    {
        "name": "Dreamlink Electronics",
        "lat": -18.13497,
        "lng": 178.4241,
        "address": "Shop 3&4 Sports city complex, Laucala"
    },
    {
        "name": "Early Shop",
        "lat": -17.78877,
        "lng": 177.4155,
        "address": "Nadi"
    },
    {
        "name": "Espresso Central",
        "lat": -18.13954,
        "lng": 178.4263,
        "address": "Fnpf plaza"
    },
    {
        "name": "Fast Engineering",
        "lat": -18.12662,
        "lng": 178.4567,
        "address": "Lalita bhindi street vatuwaqa suva"
    },
    {
        "name": "Fix General Engineering And Automotive",
        "lat": -18.12786,
        "lng": 178.4565,
        "address": "Lot 2 karsanji st vatuwaqa"
    },
    {
        "name": "Friendly Home Tech Distributor",
        "lat": -17.53683,
        "lng": 177.6876,
        "address": "Ganga Singh Street, Ba"
    },
    {
        "name": "Friendly Restaurant And Milkbar",
        "lat": -18.02971,
        "lng": 178.5301,
        "address": "Glumnam st"
    },
    {
        "name": "Fugang Zhao",
        "lat": -18.14593,
        "lng": 178.4337,
        "address": "16 Bau Street, Flagstaff"
    },
    {
        "name": "Ganesh Car Sign",
        "lat": -17.53474,
        "lng": 177.6889,
        "address": "Ba town"
    },
    {
        "name": "Gardiner Henri Whiteside",
        "lat": -18.15369,
        "lng": 178.4371,
        "address": "Lot 211 Rt Sukuna Rd, Suva"
    },
    {
        "name": "Garick Retail Shop",
        "lat": -17.99609,
        "lng": 178.5276,
        "address": "Lot 30 sand hurst street, Verata nausori"
    },
    {
        "name": "Get Well Chemist",
        "lat": -17.66013,
        "lng": 177.4049,
        "address": "saweni"
    },
    {
        "name": "Grand Import And Export Trading Fuji",
        "lat": -18.13096,
        "lng": 178.4637,
        "address": "38 Rifle Range suva"
    },
    {
        "name": "Great Range Enterprises",
        "lat": -18.11105,
        "lng": 178.4667,
        "address": "Vinod Patel Centerpoint"
    },
    {
        "name": "Groovy Kitchen",
        "lat": -18.02871,
        "lng": 178.5284,
        "address": "Phonics  Center"
    },
    {
        "name": "G Datt Transport",
        "lat": -17.52151,
        "lng": 177.6704,
        "address": "Yalalevu,Ba"
    },
    {
        "name": "Hanzee Electronics World",
        "lat": -17.78194,
        "lng": 177.4509,
        "address": "Motorex Building, Back Road Nadi"
    },
    {
        "name": "Hari Ram Investment",
        "lat": -18.12138,
        "lng": 178.4592,
        "address": "Nands mall nabua"
    },
    {
        "name": "Haris Beverly Hills Shopping Centre",
        "lat": -17.76811,
        "lng": 177.4694,
        "address": "Votualevu"
    },
    {
        "name": "Maya Foods Fiji Ltd",
        "lat": -18.14262,
        "lng": 178.4231,
        "address": "281 Victoria parade"
    },
    {
        "name": "Hasmat Ali",
        "lat": -18.06738,
        "lng": 178.5072,
        "address": "Nine mile"
    },
    {
        "name": "Potent Electric Co Pte Ltd",
        "lat": -17.60499,
        "lng": 177.447,
        "address": "4 Wall St, Lautoka"
    },
    {
        "name": "Henrys Pawn Shop",
        "lat": -18.13784,
        "lng": 178.4267,
        "address": "Mark street, suva"
    },
    {
        "name": "Cookes United",
        "lat": -18.1307,
        "lng": 178.4264,
        "address": "25 Ilaisa Street, Walu bay"
    },
    {
        "name": "In Style Hair & Beauty Salon",
        "lat": -18.13775,
        "lng": 178.426,
        "address": "Cumming st Suva"
    },
    {
        "name": "Immanuel Beauty'S Salon",
        "lat": -18.13551,
        "lng": 178.4256,
        "address": "Yatu Lau Arcade"
    },
    {
        "name": "Jaffar Ali",
        "lat": -17.53499,
        "lng": 177.6886,
        "address": "Veitau st Ba Town"
    },
    {
        "name": "Jaswant Lal",
        "lat": -17.61889,
        "lng": 177.7099,
        "address": "Nukuloa"
    },
    {
        "name": "Jet Set Hardware",
        "lat": -17.80319,
        "lng": 177.4169,
        "address": "Market Square, Nadi"
    },
    {
        "name": "Jikoitoga Tikoisuva",
        "lat": -18.13529,
        "lng": 178.4248,
        "address": "Flee market"
    },
    {
        "name": "Jing Restaurant",
        "lat": -18.14151,
        "lng": 178.4494,
        "address": "Garden city"
    },
    {
        "name": "New Look Fashion",
        "lat": -18.22655,
        "lng": 178.1641,
        "address": "Navua town"
    },
    {
        "name": "John Mahendra",
        "lat": -17.60394,
        "lng": 177.451,
        "address": "Nede St, Lautoka"
    },
    {
        "name": "Kaiyums Dairy Shop",
        "lat": -18.05639,
        "lng": 178.508,
        "address": "Lyth rd davuilevu"
    },
    {
        "name": "Dubey Dental And Medical Center",
        "lat": -18.1389,
        "lng": 178.426,
        "address": "Shop 8 level 1 Mhcc  Thompson Street"
    },
    {
        "name": "Kauteao Susau Semesi",
        "lat": -17.60458,
        "lng": 177.453,
        "address": "54 Naviti st"
    },
    {
        "name": "Tuki Rawa Kava Dealers",
        "lat": -18.11405,
        "lng": 178.4684,
        "address": "Laucala beach"
    },
    {
        "name": "Kelvins Canteen",
        "lat": -18.23915,
        "lng": 178.1061,
        "address": "Nakaulevu"
    },
    {
        "name": "Keshneels Steel Works & Joinery Solution",
        "lat": -18.11956,
        "lng": 178.466,
        "address": "Lot 88 Jerusalem rd"
    },
    {
        "name": "Keshwa Prasad Sharma",
        "lat": -17.60835,
        "lng": 177.457,
        "address": "Drasa avenue"
    },
    {
        "name": "Keystone Barber Shop",
        "lat": -18.22837,
        "lng": 178.1558,
        "address": "Navua"
    },
    {
        "name": "Khadir Hussein",
        "lat": -18.11963,
        "lng": 178.4338,
        "address": "Walubay"
    },
    {
        "name": "Kissun Bag And Shoes Repair",
        "lat": -18.12204,
        "lng": 178.4581,
        "address": "429 fletcher"
    },
    {
        "name": "Macius Dairy Shop",
        "lat": -18.10929,
        "lng": 178.4507,
        "address": "Padam Lala Squatter, Namadi Heights"
    },
    {
        "name": "Kumars Caqiri Shopping Centre",
        "lat": -18.0967,
        "lng": 178.4831,
        "address": "Lot 1 Caqiri, Nasinu"
    },
    {
        "name": "Kumars Hire",
        "lat": -18.06524,
        "lng": 178.5191,
        "address": "Lot 22 nakasi"
    },
    {
        "name": "Prime Printers",
        "lat": -17.53726,
        "lng": 177.689,
        "address": "Fong Lee Ba town bank st"
    },
    {
        "name": "Lins Hot Bread Shop & Takeaways",
        "lat": -17.53855,
        "lng": 177.6858,
        "address": "Lot 9, Market subdivision"
    },
    {
        "name": "Maroof And Associates",
        "lat": -18.02855,
        "lng": 178.5286,
        "address": "Level Nausori Meat Bldg Nausori"
    },
    {
        "name": "Mc Tech Computers",
        "lat": -18.13859,
        "lng": 178.4305,
        "address": "Toorak, Suva"
    },
    {
        "name": "Melvin Sharma",
        "lat": -17.53803,
        "lng": 177.6894,
        "address": "8 Tabua place ba"
    },
    {
        "name": "Menas Rent A Car",
        "lat": -18.12689,
        "lng": 178.4468,
        "address": "80 Belo Street,  Samabula.  Lot 1 solovi Rd Nadi"
    },
    {
        "name": "Rizmah Electrical & Auto Spares",
        "lat": -17.60337,
        "lng": 177.4556,
        "address": "18 namoli avenue lautoka"
    },
    {
        "name": "Shreeji Snacks",
        "lat": -17.5368,
        "lng": 177.6877,
        "address": "Ganga Singh st"
    },
    {
        "name": "Mohammed Faizal",
        "lat": -17.53701,
        "lng": 177.6884,
        "address": "Main street"
    },
    {
        "name": "Imran Shah'S Enterprise",
        "lat": -18.07867,
        "lng": 178.4979,
        "address": "8 miles, Business Minders Building, Nasinu"
    },
    {
        "name": "Mohammed Nawaz",
        "lat": -18.13456,
        "lng": 178.4247,
        "address": "Stall 6, flea market"
    },
    {
        "name": "Muhammef Nawaz Shah",
        "lat": -18.13282,
        "lng": 178.4429,
        "address": "Samabula"
    },
    {
        "name": "Glamour Arts & Printers",
        "lat": -17.53723,
        "lng": 177.6894,
        "address": "Bank St Ba"
    },
    {
        "name": "Nands Auto Traders",
        "lat": -18.07667,
        "lng": 178.5002,
        "address": "Lot 3,Matanikorovatu Road,Makoi"
    },
    {
        "name": "Navinesh Mini Mart",
        "lat": -18.09838,
        "lng": 178.4965,
        "address": "Lot 4 dadakulaci Rd Nadawa"
    },
    {
        "name": "Nikhil Prasad",
        "lat": -18.22686,
        "lng": 178.164,
        "address": "Navua town"
    },
    {
        "name": "Nilesh Canteen",
        "lat": -18.13141,
        "lng": 178.4636,
        "address": "Nanuet sett, rifle range"
    },
    {
        "name": "Nitesh Narrayan",
        "lat": -17.5133,
        "lng": 177.6682,
        "address": "Lelaga"
    },
    {
        "name": "One Touch Electrical",
        "lat": -18.02224,
        "lng": 178.5259,
        "address": "Rambissesar road manoca nausori"
    },
    {
        "name": "Parnesh Nath",
        "lat": -18.0946,
        "lng": 178.4837,
        "address": "Boiler, circler"
    },
    {
        "name": "Praneel Kumar",
        "lat": -18.04723,
        "lng": 178.5033,
        "address": "Davuilevu Housing"
    },
    {
        "name": "Praneel Narayan Ta Praneel Investment",
        "lat": -18.0872,
        "lng": 178.4641,
        "address": "Khalsa Rd,Suva"
    },
    {
        "name": "Prasads Mobile Dairy Shop",
        "lat": -18.0777,
        "lng": 178.5015,
        "address": "Beamount rd"
    },
    {
        "name": "Prakash Panel Beaters",
        "lat": -17.53486,
        "lng": 177.6884,
        "address": "Nabeka st"
    },
    {
        "name": "Chand Mobile Repairs",
        "lat": -18.02868,
        "lng": 178.5293,
        "address": "Opposite Rajendra Prasad nausori town"
    },
    {
        "name": "Rampur Store",
        "lat": -18.23839,
        "lng": 178.1051,
        "address": "Rampur rd, Deuba"
    },
    {
        "name": "Blacktown Barber Salon",
        "lat": -17.53736,
        "lng": 177.6889,
        "address": "Ba Town"
    },
    {
        "name": "Ravin Ragendra Prakash",
        "lat": -17.61528,
        "lng": 177.4651,
        "address": "1 vesi cresent waiyavi Lautoka"
    },
    {
        "name": "Ravinay Raj Pillay",
        "lat": -18.02691,
        "lng": 178.5289,
        "address": "Nausori market"
    },
    {
        "name": "The Outback Hotel Fiji",
        "lat": -17.6246,
        "lng": 177.7514,
        "address": "Qerelevu sett"
    },
    {
        "name": "At Better Choice",
        "lat": -17.60279,
        "lng": 177.4555,
        "address": "Namoli"
    },
    {
        "name": "Regina Devi & Anoj Kumar",
        "lat": -17.76329,
        "lng": 177.4473,
        "address": "Lt324 deo"
    },
    {
        "name": "Rekesh Rattan Singh",
        "lat": -18.01831,
        "lng": 178.5258,
        "address": "Manoca Industrial Area, Nausori"
    },
    {
        "name": "Unique Varieties",
        "lat": -17.80285,
        "lng": 177.4156,
        "address": "Main street"
    },
    {
        "name": "Rohits Dairy Shop",
        "lat": -18.2229,
        "lng": 178.1159,
        "address": "Naisasa rd, Navua"
    },
    {
        "name": "Satenz Motor Repairs",
        "lat": -17.53064,
        "lng": 177.6885,
        "address": "Nabeka street ba town"
    },
    {
        "name": "Ronald Rakesh Ram",
        "lat": -18.02702,
        "lng": 178.5289,
        "address": "Suva market,  Terminal D"
    },
    {
        "name": "Five Heart Daily Shop",
        "lat": -18.00958,
        "lng": 178.5233,
        "address": "Lakena"
    },
    {
        "name": "Rupesh Chand",
        "lat": -17.53449,
        "lng": 177.6887,
        "address": "House #14 nabeta street ba"
    },
    {
        "name": "Saharul Bi",
        "lat": -18.06395,
        "lng": 178.5143,
        "address": "Lot 46 Nakasi"
    },
    {
        "name": "Ahmed Dondusk Investment",
        "lat": -18.07603,
        "lng": 178.496,
        "address": "8 miles nasinu"
    },
    {
        "name": "Saiyad Sher Ali",
        "lat": -18.22672,
        "lng": 178.1641,
        "address": "Naisasa rd, navua"
    },
    {
        "name": "Salends Best Quality Spices",
        "lat": -17.79216,
        "lng": 177.4187,
        "address": "Vunivau Street, Nadi Town"
    },
    {
        "name": "Sams Recharge & Accessory",
        "lat": -18.02652,
        "lng": 178.5288,
        "address": "Nausori town market"
    },
    {
        "name": "Spice Corner",
        "lat": -17.77964,
        "lng": 177.4324,
        "address": "Martintar nadi"
    },
    {
        "name": "Sanji Auto Repairs",
        "lat": -18.21215,
        "lng": 178.156,
        "address": "Dalia navua"
    },
    {
        "name": "Sat Narayan Ta Dilkusha Dairy Shop",
        "lat": -18.03309,
        "lng": 178.5221,
        "address": "Lot 1,Dilkusha Road"
    },
    {
        "name": "Satendra Deo",
        "lat": -18.11099,
        "lng": 178.4667,
        "address": "Centerpoint"
    },
    {
        "name": "Satya Nand",
        "lat": -17.56822,
        "lng": 177.5146,
        "address": "Drasa"
    },
    {
        "name": "Sky Link Hire Services",
        "lat": -17.6096,
        "lng": 177.451,
        "address": "Tavewa St"
    },
    {
        "name": "Shahvhan Shah",
        "lat": -18.0651,
        "lng": 178.5113,
        "address": "Kings Rd Nasinu"
    },
    {
        "name": "Shailendra Praveen Mani",
        "lat": -17.60454,
        "lng": 177.4536,
        "address": "Globe building, Lautoka"
    },
    {
        "name": "Shakir Ali Store",
        "lat": -18.07204,
        "lng": 178.4955,
        "address": "Lot 27 Poorva Road, Makoi"
    },
    {
        "name": "Shalendra Amit Lal",
        "lat": -18.11092,
        "lng": 178.4669,
        "address": "Centerpoint Arcade,  4miles"
    },
    {
        "name": "Malik'S Minimart",
        "lat": -17.51172,
        "lng": 177.5674,
        "address": "Tavarau, beside the main road"
    },
    {
        "name": "Shalesh Billimoria Variety Shop",
        "lat": -18.22441,
        "lng": 178.1654,
        "address": "Main St, Navua"
    },
    {
        "name": "Shambhu Nadan Goundar",
        "lat": -17.7748,
        "lng": 177.434,
        "address": "Martintar, Nadi"
    },
    {
        "name": "Sharma Groceries",
        "lat": -18.24108,
        "lng": 178.0989,
        "address": "Serua  highWAY"
    },
    {
        "name": "Sharuk Rentals Services",
        "lat": -17.61425,
        "lng": 177.4415,
        "address": "Saweni"
    },
    {
        "name": "Shaymal Narayan",
        "lat": -17.60673,
        "lng": 177.4605,
        "address": "Vitogo Parade"
    },
    {
        "name": "Sheik Munif & Associates Chartered Accounts",
        "lat": -17.60371,
        "lng": 177.4521,
        "address": "Tuvalu st"
    },
    {
        "name": "Air Ocean Logistics",
        "lat": -17.76859,
        "lng": 177.4763,
        "address": "Lot 2 Dawn Proprietor - behind Mobile Station, Votualevu"
    },
    {
        "name": "Shivanis One Stop Shop",
        "lat": -17.53824,
        "lng": 177.6896,
        "address": "Tambua place ba ( opposite Ba police)"
    },
    {
        "name": "Shivaan Chand Lal",
        "lat": -17.76154,
        "lng": 177.4523,
        "address": "Namaka"
    },
    {
        "name": "Shivang Investments",
        "lat": -18.09739,
        "lng": 178.4953,
        "address": "Lot 1, Nadawa rd, Nadawa"
    },
    {
        "name": "Shonal Shivneel Kumar",
        "lat": -18.11075,
        "lng": 178.467,
        "address": "Vinod Patel Arcade,  Centrepoint"
    },
    {
        "name": "Smart Way Driver Training",
        "lat": -17.76122,
        "lng": 177.4522,
        "address": "Namaka"
    },
    {
        "name": "Sonis Unique Craft",
        "lat": -17.80455,
        "lng": 177.4155,
        "address": "Stall no 10 nadi handicraft centre nadi town"
    },
    {
        "name": "Star Joinery Work",
        "lat": -17.80633,
        "lng": 177.4131,
        "address": "Nadi Town beside SPR"
    },
    {
        "name": "Sudesh Krishna Kava Dealers",
        "lat": -17.65363,
        "lng": 177.4073,
        "address": "Lot 6 saweni lautoka"
    },
    {
        "name": "Sun Autoparts Co",
        "lat": -18.01864,
        "lng": 178.5259,
        "address": "Manoca Nausori"
    },
    {
        "name": "Sunil Gosaiy Law Firm",
        "lat": -18.09723,
        "lng": 178.4804,
        "address": "Valelevu complex, nasinu"
    },
    {
        "name": "S G Sen Trucks",
        "lat": -17.51543,
        "lng": 177.6955,
        "address": "Lot1 kings road wailailai ba"
    },
    {
        "name": "Waidranu Food Mart",
        "lat": -18.08612,
        "lng": 178.5022,
        "address": "Narere"
    },
    {
        "name": "Sushil Kanta Mani",
        "lat": -17.5375,
        "lng": 177.6889,
        "address": "tabua place, fong lee bldg"
    },
    {
        "name": "Swamy Diary Shop",
        "lat": -17.72155,
        "lng": 177.4526,
        "address": "Sabeto ltk"
    },
    {
        "name": "The Family Chemist",
        "lat": -17.60644,
        "lng": 177.456,
        "address": "Mana st"
    },
    {
        "name": "The Food Lodge",
        "lat": -17.80178,
        "lng": 177.4164,
        "address": "Sharma's Arcade, Nadi Town"
    },
    {
        "name": "Du Aull Services Fiji",
        "lat": -18.10956,
        "lng": 178.409,
        "address": "Toti street,  wailada,  lami"
    },
    {
        "name": "Think Driving School",
        "lat": -17.77149,
        "lng": 177.4377,
        "address": "Beddoes circle, namaka"
    },
    {
        "name": "Total Washing Machine Repairs",
        "lat": -17.60595,
        "lng": 177.4614,
        "address": "45 Nasoki St"
    },
    {
        "name": "Triangle Motors",
        "lat": -18.21767,
        "lng": 178.1609,
        "address": "Tokotoko Highway,  Navua"
    },
    {
        "name": "Bula Barber Shop",
        "lat": -17.80581,
        "lng": 177.4148,
        "address": "Main Street"
    },
    {
        "name": "Dynamic Paints",
        "lat": -17.60698,
        "lng": 177.457,
        "address": "Yasawa st"
    },
    {
        "name": "Raise Car Wash",
        "lat": -17.60606,
        "lng": 177.4581,
        "address": "48 Vitogo parade lautoka"
    },
    {
        "name": "Unique Shoes & Accessories",
        "lat": -18.09675,
        "lng": 178.481,
        "address": "Valelevu"
    },
    {
        "name": "Vicky One Stop Shop",
        "lat": -18.07737,
        "lng": 178.4965,
        "address": "LOT 3 PRITASAM  RD MAKOI"
    },
    {
        "name": "Vinesh Tailoring",
        "lat": -18.11261,
        "lng": 178.4688,
        "address": "LEE'S COMPLEX  CENTERPOINT"
    },
    {
        "name": "Special Finishers And Deco Paints",
        "lat": -17.60385,
        "lng": 177.451,
        "address": "shop 3 nede  st"
    },
    {
        "name": "Vinz Small Engine Spares And Repairs",
        "lat": -17.80679,
        "lng": 177.4175,
        "address": "Nadi backroad"
    },
    {
        "name": "Worldwide Freight & Logistics",
        "lat": -17.60489,
        "lng": 177.4467,
        "address": "Marine drive lautoka"
    },
    {
        "name": "Yongbo Maikana Restaurant",
        "lat": -17.60629,
        "lng": 177.4564,
        "address": "Main st"
    },
    {
        "name": "Zahid Canteen",
        "lat": -18.06306,
        "lng": 178.518,
        "address": "Naulu  road"
    },
    {
        "name": "Zahid Rehman Khan",
        "lat": -17.60467,
        "lng": 177.4548,
        "address": "NAVITI STREET"
    },
    {
        "name": "Zhida Huang Store",
        "lat": -18.09756,
        "lng": 178.4941,
        "address": "63 Nadawa Rd nadawa"
    },
    {
        "name": "Eliyahz Investment",
        "lat": -18.11224,
        "lng": 178.4766,
        "address": "Lot 1 Waterlily place, Kinoya"
    },
    {
        "name": "Empire Bus Service Ba",
        "lat": -17.52077,
        "lng": 177.6677,
        "address": "Yalalevu"
    },
    {
        "name": "Ems Machinery Hire Fiji",
        "lat": -18.2303,
        "lng": 178.1122,
        "address": "Veiwawa, Queens Rd, Navua"
    },
    {
        "name": "Epicurean Fine Foods",
        "lat": -17.80085,
        "lng": 177.4164,
        "address": "Tappoo Nadi, Main St"
    },
    {
        "name": "Ajend Kumar",
        "lat": -17.51293,
        "lng": 177.5605,
        "address": "Tavarau Settlement. Kings Rd Ba"
    },
    {
        "name": "Etech Pte Ltd",
        "lat": -18.10791,
        "lng": 178.4107,
        "address": "Wailada industrial"
    },
    {
        "name": "Alexander Sunil Kumar Sen",
        "lat": -18.22662,
        "lng": 178.1641,
        "address": "Navua st"
    },
    {
        "name": "Alhamd Smart Living",
        "lat": -17.60439,
        "lng": 177.4513,
        "address": "Laitoka"
    },
    {
        "name": "Fineline Holdings",
        "lat": -17.68173,
        "lng": 177.3985,
        "address": "Vuda"
    },
    {
        "name": "Auto Express Rentals",
        "lat": -17.5318,
        "lng": 177.6746,
        "address": "Opposite Dayal Steel, Yalalevu"
    },
    {
        "name": "All Earth Works",
        "lat": -18.2038,
        "lng": 178.1449,
        "address": "Tokotoko , Navua"
    },
    {
        "name": "Gift Villa Pte Ltd",
        "lat": -18.08856,
        "lng": 178.4956,
        "address": "Allmake complex pilling rd"
    }
]
